Food_Entity_Name,Food_Entity_Number,Address,City,State,ZIP,Food_Entity_Type,Date_Inspected,Inspection_Summary,Address_Full,latitude,longitude
TARGET # 1518,282017,4750 MILLENIA PLAZA WAY,ORLANDO,FL,32839,Supermarket,43104,Re-Inspection Required,4750 MILLENIA PLAZA WAY ORLANDO FL 32839,28.493266,-81.4306696
WINN DIXIE # 2246,37468,1565 W ORANGE BLOSSOM TRL,APOPKA,FL,32712,Supermarket,43103,Met Inspection Requirements,1565 W ORANGE BLOSSOM TRL APOPKA FL 32712,28.6883162,-81.537103
BRAVO SUPERMARKET,291203,999 N SEMORAN BLVD,ORLANDO,FL,32807,Supermarket,43098,Re-Inspection Required,999 N SEMORAN BLVD ORLANDO FL 32807,28.5594181,-81.3097533
WINN DIXIE # 2276,39729,4686 E MICHIGAN ST,ORLANDO,FL,32812,Supermarket,43096,Met Inspection Requirements,4686 E MICHIGAN ST ORLANDO FL 32812,28.5126716,-81.3283391
ALDI # 0015,354038,10537 E COLONIAL DR,ORLANDO,FL,32817,Supermarket,43076,Met Inspection Requirements,10537 E COLONIAL DR ORLANDO FL 32817,28.5712276,-81.2331953
PUBLIX # 0741,265788,7640 W SAND LAKE RD,ORLANDO,FL,32819,Supermarket,43074,Met Inspection Requirements,7640 W SAND LAKE RD ORLANDO FL 32819,28.4485813,-81.4864729
SEDANOS SUPERMARKET # 0040,335123,12981 S ORANGE BLOSSOM TRL,ORLANDO,FL,32837,Supermarket,43066,Met Inspection Requirements,12981 S ORANGE BLOSSOM TRL ORLANDO FL 32837,28.3773187,-81.403377
PUBLIX # 0605,250542,5265 S JOHN YOUNG PKWY,ORLANDO,FL,32839,Supermarket,43026,Met Inspection Requirements,5265 S JOHN YOUNG PKWY ORLANDO FL 32839,28.4876987,-81.4151081
WALMART #1220 (MAIN),270902,2500 S KIRKMAN RD,ORLANDO,FL,32811,Supermarket,42976,Met Inspection Requirements,2500 S KIRKMAN RD ORLANDO FL 32811,28.5152545,-81.4628188
PUBLIX #1567,379765,5400 HAMLIN GROVES TRAIL,WINTER GARDEN,FL,34787,Supermarket,42975,Met Inspection Requirements,5400 HAMLIN GROVES TRAIL WINTER GARDEN FL 34787,28.4685357,-81.6280776
ALDI # 0022,338847,7031 NARCOOSSEE RD,ORLANDO,FL,32822,Supermarket,42971,Met Inspection Requirements,7031 NARCOOSSEE RD ORLANDO FL 32822,28.4643179,-81.2735633
PUBLIX # 1092,296432,3400 AVALON PARK EAST BLVD,ORLANDO,FL,32828,Supermarket,42969,Met Inspection Requirements,3400 AVALON PARK EAST BLVD ORLANDO FL 32828,28.5142884,-81.1542711
1ST SPRING SUPERMARKET LLC,365289,10681 E COLONIAL DR,ORLANDO,FL,32817,Supermarket,42965,Met Inspection Requirements,10681 E COLONIAL DR ORLANDO FL 32817,28.5711362,-81.230483
SEDANO'S SUPERMARKET # 0041,335170,5660 CURRY FORD RD,ORLANDO,FL,32822,Supermarket,42964,Met Inspection Requirements,5660 CURRY FORD RD ORLANDO FL 32822,28.522128,-81.3113305
IFRESH E COLONIAL INC,379503,2415 E COLONIAL DR,ORLANDO,FL,32803,Supermarket,42955,Met Inspection Requirements with Check-Back,2415 E COLONIAL DR ORLANDO FL 32803,28.5538374,-81.351459
SAM'S CLUB # 6212,256265,7701 E COLONIAL DR,ORLANDO,FL,32807,Supermarket,42951,Met Inspection Requirements,7701 E COLONIAL DR ORLANDO FL 32807,28.5699995,-81.2842918
PUBLIX # 1396,347790,7880 WINTER GARDEN VINELAND RD,WINDERMERE,FL,34786,Supermarket,42948,Met Inspection Requirements,7880 WINTER GARDEN VINELAND RD WINDERMERE FL 34786,28.446459,-81.5612985
WOO-SUNG ORIENTAL FOOD MART,104054,5075 EDGEWATER DR,ORLANDO,FL,32810,Supermarket,42948,Met Inspection Requirements,5075 EDGEWATER DR ORLANDO FL 32810,28.6067488,-81.4085409
PUBLIX # 0812,277315,8145 VINELAND AVE,ORLANDO,FL,32821,Supermarket,42928,Met Inspection Requirements,8145 VINELAND AVE ORLANDO FL 32821,28.3870217,-81.4856425
WALMART MARKET #2499 (MAIN),355218,8801 CONROY WINDERMERE RD,ORLANDO,FL,32835,Supermarket,42927,Met Inspection Requirements,8801 CONROY WINDERMERE RD ORLANDO FL 32835,28.4958496,-81.5067157
TORTILLERIA EL PROGRESO INC,375392,6096 E COLONIAL DR,ORLANDO,FL,32807,Supermarket,42923,Met Inspection Requirements,6096 E COLONIAL DR ORLANDO FL 32807,28.5587198,-81.3065168
THE FRESH MARKET INC # 0038,272256,5000 DR PHILLIPS BLVD,ORLANDO,FL,32819,Supermarket,42922,Met Inspection Requirements,5000 DR PHILLIPS BLVD ORLANDO FL 32819,28.4925592,-81.4925004
PUBLIX # 0276,54810,2435 S HIAWASSEE RD,ORLANDO,FL,32835,Supermarket,42921,Met Inspection Requirements,2435 S HIAWASSEE RD ORLANDO FL 32835,28.5149663,-81.4836523
WALMART MARKET #4425 (MAIN),315248,7818 W COLONIAL DR,ORLANDO,FL,32818,Supermarket,42921,Met Inspection Requirements with Check-Back,7818 W COLONIAL DR ORLANDO FL 32818,28.5499484,-81.4908266
SAM'S CLUB # 6189,368742,1500 S ORANGE BLOSSOM TRAIL,APOPKA,FL,32703,Supermarket,42919,Met Inspection Requirements,1500 S ORANGE BLOSSOM TRAIL APOPKA FL 32703,28.6539213,-81.4719899
WINN DIXIE # 2267,27598,7382 CURRY FORD RD,ORLANDO,FL,32822,Supermarket,42916,Met Inspection Requirements,7382 CURRY FORD RD ORLANDO FL 32822,28.5134286,-81.2882845
WALMART #942 (MAIN),278361,10500 W COLONIAL DR,OCOEE,FL,34761,Supermarket,42916,Met Inspection Requirements,10500 W COLONIAL DR OCOEE FL 34761,28.5494582,-81.5324513
WALMART MARKET #5179 (MAIN),298085,201 S CHICKASAW TRL,ORLANDO,FL,32825,Supermarket,42916,Met Inspection Requirements,201 S CHICKASAW TRL ORLANDO FL 32825,28.5403184,-81.2760952
BRAVO SUPERMARKET,320817,4065 W OAK RIDGE RD,ORLANDO,FL,32809,Supermarket,42915,Met Inspection Requirements,4065 W OAK RIDGE RD ORLANDO FL 32809,28.4722556,-81.4275181
GOODINGS # 8012,263506,12521 STATE ROAD 535,ORLANDO,FL,32836,Supermarket,42915,Met Inspection Requirements,12521 STATE ROAD 535 ORLANDO FL 32836,28.3835107,-81.5056568
WALMART MARKET #4142 (MAIN),358078,4520 S SEMORAN BLVD,ORLANDO,FL,32822,Supermarket,42915,Met Inspection Requirements,4520 S SEMORAN BLVD ORLANDO FL 32822,28.4980253,-81.3119106
PUBLIX # 1106,295292,13450 SUMMERPORT VILLAGE PKWY,WINDERMERE,FL,34786,Supermarket,42914,Met Inspection Requirements,13450 SUMMERPORT VILLAGE PKWY WINDERMERE FL 34786,28.4766739,-81.5838784
WALMART MARKET #5988 (MAIN),362840,2271 N SEMORAN BLVD,ORLANDO,FL,32807,Supermarket,42913,Met Inspection Requirements,2271 N SEMORAN BLVD ORLANDO FL 32807,28.5763431,-81.3085706
SAVE A LOT # 0325/4999,349252,2200 BRUTON BLVD # B,ORLANDO,FL,32805,Supermarket,42907,Met Inspection Requirements,2200 BRUTON BLVD # B ORLANDO FL 32805,28.517178,-81.4265985
SAM'S CLUB # 6218,256221,7810 W COLONIAL DR,ORLANDO,FL,32818,Supermarket,42905,Met Inspection Requirements,7810 W COLONIAL DR ORLANDO FL 32818,28.5498222,-81.4889651
PUBLIX # 0347,15414,7653 S ORANGE BLOSSOM TRL,ORLANDO,FL,32809,Supermarket,42900,Met Inspection Requirements,7653 S ORANGE BLOSSOM TRL ORLANDO FL 32809,28.4547562,-81.3979944
FAMILY FOOD MEAT AND PRODUCES CORP,374701,1350 W GORE ST,ORLANDO,FL,32805,Supermarket,42900,Met Inspection Requirements,1350 W GORE ST ORLANDO FL 32805,28.5303738,-81.3987911
SUPER TARGET # 2376,323475,120 W GRANT ST,ORLANDO,FL,32806,Supermarket,42899,Met Inspection Requirements,120 W GRANT ST ORLANDO FL 32806,28.515619,-81.380099
BRAVO SUPERMARKET # 0061,313953,624 S DILLARD ST,WINTER GARDEN,FL,34787,Supermarket,42899,Met Inspection Requirements,624 S DILLARD ST WINTER GARDEN FL 34787,28.5573815,-81.5846734
WINN DIXIE # 2288,15517,2960 CURRY FORD RD,ORLANDO,FL,32806,Supermarket,42898,Met Inspection Requirements,2960 CURRY FORD RD ORLANDO FL 32806,28.5241079,-81.3447785
PUBLIX # 1191,321679,9930 UNIVERSAL BLVD,ORLANDO,FL,32819,Supermarket,42880,Met Inspection Requirements,9930 UNIVERSAL BLVD ORLANDO FL 32819,28.4273181,-81.4447456
PUBLIX # 0427,61822,3972 W TOWN CENTER BLVD,ORLANDO,FL,32837,Supermarket,42878,Met Inspection Requirements,3972 W TOWN CENTER BLVD ORLANDO FL 32837,28.3615826,-81.42434
WHOLE FOODS MARKET INC #10194,321913,8003 TURKEY LAKE RD,ORLANDO,FL,32819,Supermarket,42872,Met Inspection Requirements with Check-Back,8003 TURKEY LAKE RD ORLANDO FL 32819,28.4491643,-81.4765302
TARGET # 2264,315465,3343 DANIELS RD,WINTER GARDEN,FL,34787,Supermarket,42871,Met Inspection Requirements,3343 DANIELS RD WINTER GARDEN FL 34787,28.5205617,-81.5851465
WALMART #908 (MAIN),259266,8101 S JOHN YOUNG PKWY,ORLANDO,FL,32819,Supermarket,42871,Met Inspection Requirements,8101 S JOHN YOUNG PKWY ORLANDO FL 32819,28.4476423,-81.4245129
SAM'S CLUB # 8290,38284,9498 S ORANGE BLOSSOM TRL,ORLANDO,FL,32837,Supermarket,42871,Met Inspection Requirements,9498 S ORANGE BLOSSOM TRL ORLANDO FL 32837,28.4221466,-81.4061129
WINN DIXIE # 2215,272979,11957 S APOPKA VINELAND RD,ORLANDO,FL,32836,Supermarket,42857,*,11957 S APOPKA VINELAND RD ORLANDO FL 32836,28.3919562,-81.5054693
CARIBBEAN SUPERCENTER,298053,5111 W COLONIAL DR,ORLANDO,FL,32808,Supermarket,42849,*,5111 W COLONIAL DR ORLANDO FL 32808,28.5533853,-81.4506981
PUBLIX # 0331,38622,4606 S KIRKMAN RD,ORLANDO,FL,32811,Supermarket,42843,*,4606 S KIRKMAN RD ORLANDO FL 32811,28.494784,-81.459323
WALMART #4332 (MAIN),314131,8990 TURKEY LAKE RD,ORLANDO,FL,32819,Supermarket,42842,*,8990 TURKEY LAKE RD ORLANDO FL 32819,28.4397987,-81.4763796
FRESH MARKET # 0157,357681,1500 N MILLS AVE,ORLANDO,FL,32803,Supermarket,42836,*,1500 N MILLS AVE ORLANDO FL 32803,28.5650976,-81.3658552
PUBLIX # 0405,55591,8863 W COLONIAL DR,OCOEE,FL,34761,Supermarket,42835,*,8863 W COLONIAL DR OCOEE FL 34761,28.5533353,-81.506123
CARIBBEAN FOOD MARKET,318920,2121 W WASHINGTON ST,ORLANDO,FL,32805,Supermarket,42830,*,2121 W WASHINGTON ST ORLANDO FL 32805,28.544808,-81.408455
PUBLIX # 0654,256842,12195 S ORANGE BLOSSOM TRL,ORLANDO,FL,32837,Supermarket,42823,*,12195 S ORANGE BLOSSOM TRL ORLANDO FL 32837,28.3886725,-81.4023833
ALDI # 0024,324854,12351 S ORANGE BLOSSOM TRL STE 106,ORLANDO,FL,32837,Supermarket,42823,*,12351 S ORANGE BLOSSOM TRL STE 106 ORLANDO FL 32837,28.3860641,-81.4022447
HARVEYS #1709,14302,2722 N PINE HILLS RD,ORLANDO,FL,32808,Supermarket,42822,*,2722 N PINE HILLS RD ORLANDO FL 32808,28.5790304,-81.452985
COMPARE SUPERMARKET # 0005,298633,3020 N GOLDENROD RD,WINTER PARK,FL,32792,Supermarket,42822,*,3020 N GOLDENROD RD WINTER PARK FL 32792,28.583824,-81.287038
PUBLIX # 1488,364599,440 N ORLANDO AVE,WINTER PARK,FL,32789,Supermarket,42821,*,440 N ORLANDO AVE WINTER PARK FL 32789,28.6011494,-81.3632535
GOODIES SUPERMARKET,377724,11701 INTERNATIONAL DR STE 600,ORLANDO,FL,32821,Supermarket,42817,*,11701 INTERNATIONAL DR STE 600 ORLANDO FL 32821,28.3938417,-81.4648373
SEABRA FOODS,373682,5571 INTERNATIONAL DR,ORLANDO,FL,32819,Supermarket,42815,*,5571 INTERNATIONAL DR ORLANDO FL 32819,28.4625233,-81.455803
WALMART #5741,373713,9047 CURRY FORD ROAD,ORLANDO,FL,32825,Supermarket,42809,*,9047 CURRY FORD ROAD ORLANDO FL 32825,28.5111449,-81.257866
WALMART MARKET #4160 (MAIN),357159,1101 S GOLDWYN AVE,ORLANDO,FL,32805,Supermarket,42808,*,1101 S GOLDWYN AVE ORLANDO FL 32805,28.5278559,-81.416854
PUBLIX # 0692,260961,4402 CURRY FORD RD,ORLANDO,FL,32812,Supermarket,42803,*,4402 CURRY FORD RD ORLANDO FL 32812,28.521527,-81.3302926
NEW GOLDEN SPARKLING SUPERMARKET,377430,5600 W COLONIAL DR STE 306,ORLANDO,FL,32808,Supermarket,42796,*,5600 W COLONIAL DR STE 306 ORLANDO FL 32808,28.5513145,-81.4575957
PUBLIX # 0881,285251,13750 W COLONIAL DR,WINTER GARDEN,FL,34787,Supermarket,42793,*,13750 W COLONIAL DR WINTER GARDEN FL 34787,28.5489541,-81.5892298
COSTCO # 0185,261565,3333 UNIVERSITY BLVD,WINTER PARK,FL,32792,Supermarket,42793,*,3333 UNIVERSITY BLVD WINTER PARK FL 32792,28.599536,-81.3000689
QUADRO SUPERMARKET 2,361945,23 W SILVER STAR RD,OCOEE,FL,34761,Supermarket,42781,*,23 W SILVER STAR RD OCOEE FL 34761,28.5731517,-81.5453078
COSTCO WHOLESALE # 1235,373272,4696 GARDENS PARK BLVD,ORLANDO,FL,32839,Supermarket,42779,*,4696 GARDENS PARK BLVD ORLANDO FL 32839,28.4955517,-81.4254306
SUPER ORIENTAL MARKET,282714,2100 E COLONIAL DR,ORLANDO,FL,32803,Supermarket,42779,*,2100 E COLONIAL DR ORLANDO FL 32803,28.5527265,-81.3552438
WALMART #3782 (MAIN),319954,5991 NEW GOLDENROD RD,ORLANDO,FL,32822,Supermarket,42776,*,5991 NEW GOLDENROD RD ORLANDO FL 32822,28.4744674,-81.2868751
PUBLIX # 0607,251237,1921 S ALAFAYA TRL,ORLANDO,FL,32828,Supermarket,42775,*,1921 S ALAFAYA TRL ORLANDO FL 32828,28.5259501,-81.193456
WINN DIXIE # 2278,109823,1401 S HIAWASSEE RD,ORLANDO,FL,32835,Supermarket,42774,*,1401 S HIAWASSEE RD ORLANDO FL 32835,28.5248448,-81.4700798
WALMART #955 (MAIN),256637,1700 S ORANGE BLOSSOM TRL,APOPKA,FL,32703,Supermarket,42773,*,1700 S ORANGE BLOSSOM TRL APOPKA FL 32703,28.6494736,-81.4693118
PUBLIX # 1158,314081,15502 STONEYBROOK WEST PKWY STE 100,WINTER GARDEN,FL,34787,Supermarket,42767,*,15502 STONEYBROOK WEST PKWY STE 100 WINTER GARDEN FL 34787,28.5163279,-81.6190119
PUBLIX # 1174,322197,301 WEST RD,OCOEE,FL,34761,Supermarket,42765,*,301 WEST RD OCOEE FL 34761,28.6044204,-81.5495
CONWAY MEATS FISH & PRODUCE,371922,4520 CURRY FORD RD,ORLANDO,FL,32812,Supermarket,42759,*,4520 CURRY FORD RD ORLANDO FL 32812,28.5240998,-81.329299
WALMART MARKET #3162 (MAIN),357258,2715 S ORANGE AVE,ORLANDO,FL,32806,Supermarket,42759,*,2715 S ORANGE AVE ORLANDO FL 32806,28.5120005,-81.3749485
PUBLIX # 1387,343823,4000 N GOLDENROD RD,WINTER PARK,FL,32792,Supermarket,42755,*,4000 N GOLDENROD RD WINTER PARK FL 32792,28.5985975,-81.2887773
PUBLIX # 0897,286385,16825 E COLONIAL DR,ORLANDO,FL,32820,Supermarket,42755,*,16825 E COLONIAL DR ORLANDO FL 32820,28.5625854,-81.1308412
PUBLIX # 0659,14274,2015 EDGEWATER DR,ORLANDO,FL,32804,Supermarket,42753,*,2015 EDGEWATER DR ORLANDO FL 32804,28.5699708,-81.3884249
WALMART MARKET #5875 (MAIN),346698,12550 S ORANGE BLOSSOM TRL,ORLANDO,FL,32837,Supermarket,42753,*,12550 S ORANGE BLOSSOM TRL ORLANDO FL 32837,28.3825096,-81.4062724
1ST ORIENTAL SUPERMARKET,284631,5132 W COLONIAL DR,ORLANDO,FL,32808,Supermarket,42752,*,5132 W COLONIAL DR ORLANDO FL 32808,28.55033,-81.450444
PUBLIX # 0662,256470,1400 E COLONIAL DR,ORLANDO,FL,32803,Supermarket,42747,*,1400 E COLONIAL DR ORLANDO FL 32803,28.5527003,-81.3615543
PUBLIX # 0436,63316,2873 S ORANGE AVE,ORLANDO,FL,32806,Supermarket,42746,*,2873 S ORANGE AVE ORLANDO FL 32806,28.5100442,-81.3732389
PUBLIX # 1101,291206,13850 LANDSTAR BLVD,ORLANDO,FL,32824,Supermarket,42744,*,13850 LANDSTAR BLVD ORLANDO FL 32824,28.3624661,-81.3671247
PUBLIX # 1338,325602,10250 CURRY FORD RD,ORLANDO,FL,32825,Supermarket,42744,*,10250 CURRY FORD RD ORLANDO FL 32825,28.5083332,-81.237929
PUBLIX # 1430,354006,13900 NARCOOSSEE RD,ORLANDO,FL,32832,Supermarket,42740,*,13900 NARCOOSSEE RD ORLANDO FL 32832,28.36467,-81.2468865
PUBLIX # 0542,100340,2600 MAGUIRE RD,OCOEE,FL,34761,Supermarket,42739,*,2600 MAGUIRE RD OCOEE FL 34761,28.5321812,-81.5398599
WALMART MARKET #3817 (MAIN),306053,433 AVALON PARK SOUTH BLVD,ORLANDO,FL,32828,Supermarket,42739,*,433 AVALON PARK SOUTH BLVD ORLANDO FL 32828,28.5370105,-81.1490253
TARGET # 1790,271597,2155 W TOWN CENTER BLVD,ORLANDO,FL,32837,Supermarket,42738,*,2155 W TOWN CENTER BLVD ORLANDO FL 32837,28.3699325,-81.4077514
PUBLIX # 0886,285687,10615 NARCOOSSEE RD,ORLANDO,FL,32832,Supermarket,42738,*,10615 NARCOOSSEE RD ORLANDO FL 32832,28.4129176,-81.2409704
SAM'S CLUB # 4828,376480,11920 NARCOOSSEE ROAD,ORLANDO,FL,32832,Supermarket,42732,*,11920 NARCOOSSEE ROAD ORLANDO FL 32832,28.3926877,-81.2480326
WALMART SUPERCENTER #4365,376481,11930 NARCOOSSEE ROAD,ORLANDO,FL,32832,Supermarket,42732,*,11930 NARCOOSSEE ROAD ORLANDO FL 32832,28.3922479,-81.2482484
LUCKY'S MARKET # 0025,376417,11750 E COLONIAL DR,ORLANDO,FL,32817,Supermarket,42726,*,11750 E COLONIAL DR ORLANDO FL 32817,28.565845,-81.209277
WALMART MARKET #3617,304098,600 S ALAFAYA TRL,ORLANDO,FL,32828,Supermarket,42718,*,600 S ALAFAYA TRL ORLANDO FL 32828,28.5361732,-81.2090639
BRAVO SUPERMARKET,295352,2701 N HIAWASSEE RD,ORLANDO,FL,32818,Supermarket,42704,*,2701 N HIAWASSEE RD ORLANDO FL 32818,28.5792911,-81.4739835
WALMART #4588 (MAIN),335953,3101 W PRINCETON ST,ORLANDO,FL,32808,Supermarket,42690,*,3101 W PRINCETON ST ORLANDO FL 32808,28.5713181,-81.4174204
ALDI # 0020,323834,1900 S SEMORAN BLVD,ORLANDO,FL,32822,Supermarket,42684,*,1900 S SEMORAN BLVD ORLANDO FL 32822,28.5206249,-81.3123227
PUBLIX # 1388,347196,741 S ORLANDO AVE,WINTER PARK,FL,32789,Supermarket,42675,Pass*,741 S ORLANDO AVE WINTER PARK FL 32789,28.5915638,-81.3664477
BRAVO SUPERMARKET,375630,10659 E COLONIAL DR,ORLANDO,FL,32817,Supermarket,42675,Pass*,10659 E COLONIAL DR ORLANDO FL 32817,28.5710588,-81.2311152
WALMART # 0110,375629,16313 NEW INDEPENDENCE PARKWAY,WINTER GARDEN,FL,34787,Supermarket,42674,Pass*,16313 NEW INDEPENDENCE PARKWAY WINTER GARDEN FL 34787,28.4765105,-81.629602
PUBLIX SUPERMARKET #1501,375594,4042 S SEMORAN BLVD,ORLANDO,FL,32822,Supermarket,42670,Pass*,4042 S SEMORAN BLVD ORLANDO FL 32822,28.5042297,-81.3122871
PUBLIX # 0761,269816,1720 E SILVER STAR RD,OCOEE,FL,34761,Supermarket,42668,Pass*,1720 E SILVER STAR RD OCOEE FL 34761,28.5751815,-81.5162368
WHOLE FOODS MARKET,375471,1030 N ORLANDO AVE,WINTER PARK,FL,32789,Supermarket,42662,Pass*,1030 N ORLANDO AVE WINTER PARK FL 32789,28.606477,-81.36462
WALMART NEIGHBORHOOD MARKET #4197,375445,902 LEE ROAD,ORLANDO,FL,32810,Supermarket,42661,Pass*,902 LEE ROAD ORLANDO FL 32810,28.6044122,-81.3946949
PUBLIX # 0332,38512,10115 UNIVERSITY BLVD,ORLANDO,FL,32817,Supermarket,42642,Pass*,10115 UNIVERSITY BLVD ORLANDO FL 32817,28.5990362,-81.2428248
SOUTHWEST MEGA MEAT SUPER MARKET,368241,4704 S ORANGE BLOSSOM TRL,ORLANDO,FL,32839,Supermarket,42639,Pass*,4704 S ORANGE BLOSSOM TRL ORLANDO FL 32839,28.493956,-81.3979347
PUBLIX # 1015,291205,6485 S CHICKASAW TRL,ORLANDO,FL,32829,Supermarket,42636,Pass*,6485 S CHICKASAW TRL ORLANDO FL 32829,28.4704777,-81.2661878
PUBLIX # 1048,291339,1501 MEETING PL,ORLANDO,FL,32814,Supermarket,42634,Pass*,1501 MEETING PL ORLANDO FL 32814,28.5659502,-81.3271175
PUBLIX # 1440,358980,12231 E COLONIAL DR,ORLANDO,FL,32826,Supermarket,42632,Pass*,12231 E COLONIAL DR ORLANDO FL 32826,28.5676915,-81.1959453
WINN DIXIE # 2270,107473,12500 LAKE UNDERHILL RD,ORLANDO,FL,32828,Supermarket,42626,Pass*,12500 LAKE UNDERHILL RD ORLANDO FL 32828,28.5458746,-81.201217
WINN DIXIE # 2269,257173,13200 E COLONIAL DR STE 100,ORLANDO,FL,32826,Supermarket,42621,Pass*,13200 E COLONIAL DR STE 100 ORLANDO FL 32826,28.5636235,-81.1835732
SAVE-A-LOT #0124/5525,309983,4075 S GOLDENROD RD STE B,ORLANDO,FL,32822,Supermarket,42614,Pass*,4075 S GOLDENROD RD STE B ORLANDO FL 32822,28.48945,-81.2837891
PUBLIX # 1131,323559,400 E CENTRAL BLVD,ORLANDO,FL,32801,Supermarket,42613,Pass*,400 E CENTRAL BLVD ORLANDO FL 32801,28.5421062,-81.3726558
SAVE-A-LOT #0316/4993,336490,700 S GOLDENROD RD,ORLANDO,FL,32822,Supermarket,42612,Pass*,700 S GOLDENROD RD ORLANDO FL 32822,28.5365326,-81.2868435
TARGET # 1760,260505,325 N ALAFAYA TRL,ORLANDO,FL,32828,Supermarket,42611,Pass*,325 N ALAFAYA TRL ORLANDO FL 32828,28.5518056,-81.2017196
COSTCO WHOLESALE # 651,374832,2101 WATERBRIDGE BLVD,ORLANDO,FL,32837,Supermarket,42607,Pass*,2101 WATERBRIDGE BLVD ORLANDO FL 32837,28.4045746,-81.4066376
PUBLIX # 1070,291020,242 N ORLANDO AVE,MAITLAND,FL,32751,Supermarket,42605,Pass*,242 N ORLANDO AVE MAITLAND FL 32751,28.6288064,-81.3621713
WALMART #890 (MAIN),260746,11250 E COLONIAL DR,ORLANDO,FL,32817,Supermarket,42594,Pass*,11250 E COLONIAL DR ORLANDO FL 32817,28.5659408,-81.2177856
BJ'S WHOLESALE CLUB # 0130,272299,4697 MILLENIA PLAZA WAY,ORLANDO,FL,32839,Supermarket,42592,Pass*,4697 MILLENIA PLAZA WAY ORLANDO FL 32839,28.4947698,-81.4279841
WALMART MARKET #4211 (MAIN),307519,5559 CLARCONA OCOEE RD,ORLANDO,FL,32810,Supermarket,42576,Pass*,5559 CLARCONA OCOEE RD ORLANDO FL 32810,28.6125173,-81.4542626
BJ'S WHOLESALE CLUB # 0135,272082,12190 LAKE UNDERHILL RD,ORLANDO,FL,32825,Supermarket,42571,Pass*,12190 LAKE UNDERHILL RD ORLANDO FL 32825,28.5451662,-81.2075976
WINN DIXIE # 2390,257400,5732 N HIAWASSEE RD,ORLANDO,FL,32810,Supermarket,42565,Pass*,5732 N HIAWASSEE RD ORLANDO FL 32810,28.6153281,-81.4776423
PUBLIX # 0465,68195,2300 S CHICKASAW TRL,ORLANDO,FL,32825,Supermarket,42548,Pass*,2300 S CHICKASAW TRL ORLANDO FL 32825,28.5117038,-81.2694164
PUBLIX # 0501,71867,1545 ROCK SPRINGS RD,APOPKA,FL,32712,Supermarket,42530,Pass*,1545 ROCK SPRINGS RD APOPKA FL 32712,28.7073154,-81.5076159
PUBLIX # 1439,359460,7524 DR PHILLIPS BLVD,ORLANDO,FL,32819,Supermarket,42529,Pass*,7524 DR PHILLIPS BLVD ORLANDO FL 32819,28.4537902,-81.4899765
PUBLIX # 0830,276225,4501 HOFFNER AVE,ORLANDO,FL,32812,Supermarket,42450,Pass*,4501 HOFFNER AVE ORLANDO FL 32812,28.4818441,-81.3293638
PUBLIX # 1122,311421,409 S CHICKASAW TRL,ORLANDO,FL,32825,Supermarket,42445,Pass*,409 S CHICKASAW TRL ORLANDO FL 32825,28.5377666,-81.2738213
WALMART #5871 (MAIN),357047,5734 S ORANGE BLOSSOM TRL,ORLANDO,FL,32839,Supermarket,42345,Pass*,5734 S ORANGE BLOSSOM TRL ORLANDO FL 32839,28.4748775,-81.3991547
PUBLIX # 0133,289178,4870 S APOPKA VINELAND RD,ORLANDO,FL,32819,Supermarket,42144,Pass*,4870 S APOPKA VINELAND RD ORLANDO FL 32819,28.4906699,-81.5105685
WINN DIXIE # 2306,38395,1514 S FRENCH AVE,SANFORD,FL,32771,Supermarket,43103,Met Inspection Requirements,1514 S FRENCH AVE SANFORD FL 32771,28.79795,-81.274384
PUBLIX # 0301,37435,951 N STATE ROAD 434,ALTAMONTE SPRINGS,FL,32714,Supermarket,43088,Met Inspection Requirements,951 N STATE ROAD 434 ALTAMONTE SPRINGS FL 32714,28.6822679,-81.4168369
PUBLIX # 0865,280295,3883 WEKIVA SPRINGS RD,LONGWOOD,FL,32779,Supermarket,43082,Met Inspection Requirements,3883 WEKIVA SPRINGS RD LONGWOOD FL 32779,28.7064498,-81.4444948
BRAVO SUPERMARKET,292468,519 S ORANGE BLOSSOM TRL,APOPKA,FL,32703,Supermarket,43076,Met Inspection Requirements,519 S ORANGE BLOSSOM TRL APOPKA FL 32703,28.6720188,-81.4937038
SAFEWAY # 3304,373578,503 E ALTAMONTE DR,ALTAMONTE SPRINGS,FL,32701,Supermarket,43075,Met Inspection Requirements,503 E ALTAMONTE DR ALTAMONTE SPRINGS FL 32701,28.6655408,-81.3731232
PUBLIX # 1559,380947,443 W CR 419 STE 1001,OVIEDO,FL,32766,Supermarket,43074,Met Inspection Requirements,443 W CR 419 STE 1001 OVIEDO FL 32766,28.6703038,-81.1981758
WALMART MARKET #5106 (MAIN),281447,4255 ALAFAYA TRL,OVIEDO,FL,32765,Supermarket,43055,Met Inspection Requirements,4255 ALAFAYA TRL OVIEDO FL 32765,28.6133609,-81.2090813
PUBLIX # 0742,267143,482 E ALTAMONTE DR STE 1005,ALTAMONTE SPRINGS,FL,32701,Supermarket,43045,Met Inspection Requirements,482 E ALTAMONTE DR STE 1005 ALTAMONTE SPRINGS FL 32701,28.6619489,-81.3743491
PUBLIX # 1428,359041,2381 W STATE ROAD 434,LONGWOOD,FL,32779,Supermarket,43040,Met Inspection Requirements,2381 W STATE ROAD 434 LONGWOOD FL 32779,28.6881982,-81.4040453
WINN DIXIE # 2271,79,1021 LOCKWOOD BLVD,OVIEDO,FL,32765,Supermarket,43026,Met Inspection Requirements,1021 LOCKWOOD BLVD OVIEDO FL 32765,28.65679,-81.177999
WINN DIXIE # 2233,7658,951 W STATE ROAD 434,LONGWOOD,FL,32750,Supermarket,43018,Met Inspection Requirements,951 W STATE ROAD 434 LONGWOOD FL 32750,28.6990013,-81.3607373
PUBLIX # 1285,336836,1455 STATE ROAD 436 STE 221,CASSELBERRY,FL,32707,Supermarket,43017,Met Inspection Requirements,1455 STATE ROAD 436 STE 221 CASSELBERRY FL 32707,28.6272917,-81.3191885
WINN DIXIE # 2388,269329,340 S STATE ROAD 434 STE 1034,ALTAMONTE SPRINGS,FL,32714,Supermarket,42976,Met Inspection Requirements,340 S STATE ROAD 434 STE 1034 ALTAMONTE SPRINGS FL 32714,28.6574793,-81.4195082
BJ'S WHOLESALE CLUB # 0133,272807,4270 W STATE ROAD 46,SANFORD,FL,32771,Supermarket,42940,Met Inspection Requirements,4270 W STATE ROAD 46 SANFORD FL 32771,28.8114075,-81.3399062
COSTCO # 0183,105290,741 ORANGE AVE,ALTAMONTE SPRINGS,FL,32714,Supermarket,42926,Met Inspection Requirements,741 ORANGE AVE ALTAMONTE SPRINGS FL 32714,28.6606994,-81.4171187
PUBLIX # 0698,262747,601 WELDON BLVD,LAKE MARY,FL,32746,Supermarket,42888,Met Inspection Requirements,601 WELDON BLVD LAKE MARY FL 32746,28.7376518,-81.3044126
ALDI # 0005,324770,924 W STATE ROAD 436 STE 1410,ALTAMONTE SPRINGS,FL,32714,Supermarket,42888,Met Inspection Requirements,924 W STATE ROAD 436 STE 1410 ALTAMONTE SPRINGS FL 32714,28.6648056,-81.4199424
WINN DIXIE # 2266,50955,7800 S US HIGHWAY 17/92,FERN PARK,FL,32730,Supermarket,42849,*,7800 S US HIGHWAY 17/92 FERN PARK FL 32730,28.6526952,-81.3498538
WINN DIXIE # 2273,256619,1750 SUNSHADOW DR STE 100,CASSELBERRY,FL,32707,Supermarket,42842,*,1750 SUNSHADOW DR STE 100 CASSELBERRY FL 32707,28.6962242,-81.3217543
WINN DIXIE # 2380,61900,120 INTERNATIONAL PKWY,HEATHROW,FL,32746,Supermarket,42822,*,120 INTERNATIONAL PKWY HEATHROW FL 32746,28.7578359,-81.3692808
SAM'S CLUB # 8214,39127,355 STATE ROAD 436,FERN PARK,FL,32730,Supermarket,42794,*,355 STATE ROAD 436 FERN PARK FL 32730,28.6570332,-81.3362943
THE FRESH MARKET # 0183,360193,5920 RED BUG LAKE RD,WINTER SPRINGS,FL,32708,Supermarket,42794,*,5920 RED BUG LAKE RD WINTER SPRINGS FL 32708,28.6488808,-81.2672168
WALMART SUPERCENTER #0943,37293,1239 STATE ROAD 436 STE 101,CASSELBERRY,FL,32707,Supermarket,42779,*,1239 STATE ROAD 436 STE 101 CASSELBERRY FL 32707,28.6359869,-81.3209381
WALMART MARKET#525 (MAIN),371269,825 CASA VERDE BLVD,LAKE MARY,FL,32746,Supermarket,42776,*,825 CASA VERDE BLVD LAKE MARY FL 32746,28.7845233,-81.3040385
TARGET # 1966,297388,1201 WP BALL BLVD,SANFORD,FL,32771,Supermarket,42769,*,1201 WP BALL BLVD SANFORD FL 32771,28.797932,-81.3367906
PUBLIX # 1304,325191,870 VILLAGE OAK LN,LAKE MARY,FL,32746,Supermarket,42767,*,870 VILLAGE OAK LN LAKE MARY FL 32746,28.7878175,-81.3569823
WALMART MARKET #5132 (MAIN),285590,5216 RED BUG LAKE RD,WINTER SPRINGS,FL,32708,Supermarket,42766,*,5216 RED BUG LAKE RD WINTER SPRINGS FL 32708,28.6486091,-81.2781076
PUBLIX # 0796,272195,5655 RED BUG LAKE RD,WINTER SPRINGS,FL,32708,Supermarket,42759,*,5655 RED BUG LAKE RD WINTER SPRINGS FL 32708,28.646349,-81.2698228
PUBLIX # 0379,52114,3385 S US HIGHWAY 17/92,CASSELBERRY,FL,32707,Supermarket,42753,*,3385 S US HIGHWAY 17/92 CASSELBERRY FL 32707,28.6786414,-81.3344627
WALMART #5894 (MAIN),349511,5511 DEEP LAKE RD,OVIEDO,FL,32765,Supermarket,42753,*,5511 DEEP LAKE RD OVIEDO FL 32765,28.6171323,-81.2601305
PUBLIX # 1127,312720,4195 W LAKE MARY BLVD,LAKE MARY,FL,32746,Supermarket,42740,*,4195 W LAKE MARY BLVD LAKE MARY FL 32746,28.7542209,-81.3495921
PUBLIX # 0493,70345,2100 WINTER SPRINGS BLVD,OVIEDO,FL,32765,Supermarket,42740,*,2100 WINTER SPRINGS BLVD OVIEDO FL 32765,28.6693578,-81.225882
THE FRESH MARKET # 0190,361736,3775 LAKE EMMA RD,LAKE MARY,FL,32746,Supermarket,42733,*,3775 LAKE EMMA RD LAKE MARY FL 32746,28.7547773,-81.3580247
PUBLIX # 1381,340763,2295 ALOMA AVE,WINTER PARK,FL,32792,Supermarket,42704,*,2295 ALOMA AVE WINTER PARK FL 32792,28.6025884,-81.3220027
WALMART SUPERCENTER #0857,51039,3653 S ORLANDO DR,SANFORD,FL,32773,Supermarket,42702,*,3653 S ORLANDO DR SANFORD FL 32773,28.7595873,-81.2816756
PUBLIX # 0062,280041,1160 E STATE ROAD 434,WINTER SPRINGS,FL,32708,Supermarket,42682,*,1160 E STATE ROAD 434 WINTER SPRINGS FL 32708,28.699417,-81.2640459
SAM'S CLUB # 4785,279522,1101 RINEHART RD,SANFORD,FL,32771,Supermarket,42678,Pass*,1101 RINEHART RD SANFORD FL 32771,28.7911649,-81.3408298
WALMART #3207 (MAIN),289313,1601 RINEHART RD,SANFORD,FL,32771,Supermarket,42676,Pass*,1601 RINEHART RD SANFORD FL 32771,28.8025307,-81.3281138
WHOLE FOODS MARKET INC # 10516,371356,305 E ALTAMONTE DRIVE STE 1000,ALTAMONTE SPRINGS,FL,32701,Supermarket,42675,Pass*,305 E ALTAMONTE DRIVE STE 1000 ALTAMONTE SPRINGS FL 32701,28.6643711,-81.3815558
PUBLIX # 0227,27889,540 S HUNT CLUB BLVD,APOPKA,FL,32703,Supermarket,42667,Pass*,540 S HUNT CLUB BLVD APOPKA FL 32703,28.6713628,-81.4512476
PUBLIX # 0833,276350,825 RINEHART RD,LAKE MARY,FL,32746,Supermarket,42660,Pass*,825 RINEHART RD LAKE MARY FL 32746,28.7809085,-81.3454705
PUBLIX # 0458,67572,4250 ALAFAYA TRL STE 148,OVIEDO,FL,32765,Supermarket,42640,Pass*,4250 ALAFAYA TRL STE 148 OVIEDO FL 32765,28.6131122,-81.2058207
PUBLIX # 0329,38664,81 ALAFAYA WOODS BLVD,OVIEDO,FL,32765,Supermarket,42639,Pass*,81 ALAFAYA WOODS BLVD OVIEDO FL 32765,28.6506241,-81.205138
PUBLIX # 1295,336869,2871 CLAYTON CROSSING WAY STE 1001,OVIEDO,FL,32765,Supermarket,42635,Pass*,2871 CLAYTON CROSSING WAY STE 1001 OVIEDO FL 32765,28.6205676,-81.2605166
PUBLIX # 0675,262823,1801 E BROADWAY ST,OVIEDO,FL,32765,Supermarket,42633,Pass*,1801 E BROADWAY ST OVIEDO FL 32765,28.6611404,-81.1783626
PUBLIX # 0442,283171,851 S STATE ROAD 434,ALTAMONTE SPRINGS,FL,32714,Supermarket,42577,Pass*,851 S STATE ROAD 434 ALTAMONTE SPRINGS FL 32714,28.6451048,-81.4116729
PUBLIX # 0641,256845,5240 W STATE ROAD 46,SANFORD,FL,32771,Supermarket,42576,Pass*,5240 W STATE ROAD 46 SANFORD FL 32771,28.8118814,-81.3551277
PUBLIX # 0349,39527,10601 US HIGHWAY 441 STE D,LEESBURG,FL,34788,Supermarket,42774,*,10601 US HIGHWAY 441 STE D LEESBURG FL 34788,28.8228793,-81.7813312
PUBLIX # 1168,317130,7975 STATE ROAD 50,GROVELAND,FL,34736,Supermarket,42746,*,7975 STATE ROAD 50 GROVELAND FL 34736,28.5600076,-81.8214387
WINN DIXIE # 2261,35569,450 E BURLEIGH BLVD,TAVARES,FL,32778,Supermarket,42712,*,450 E BURLEIGH BLVD TAVARES FL 32778,28.8170532,-81.7233548
SAM'S CLUB #4998,326804,755 HIGHWAY 27/441,LADY LAKE,FL,32159,Supermarket,42629,Pass*,755 HIGHWAY 27/441 LADY LAKE FL 32159,28.9351565,-81.9377264
PUBLIX SUPERMARKET # 1535,374879,2042 STATE RD 19,TAVARES,FL,32778,Supermarket,42612,Pass*,2042 STATE RD 19 TAVARES FL 32778,28.7843297,-81.7509545
PUBLIX # 1357,344473,2430 US HIGHWAY 27,CLERMONT,FL,34714,Supermarket,43103,Met Inspection Requirements,2430 US HIGHWAY 27 CLERMONT FL 34714,28.3819954,-81.6866231
ALDI # 0017,340459,2503 S HIGHWAY 27,CLERMONT,FL,34711,Supermarket,43077,Met Inspection Requirements with Check-Back,2503 S HIGHWAY 27 CLERMONT FL 34711,28.5343953,-81.735987
WINN DIXIE # 2225,102143,684 E HIGHWAY 50,CLERMONT,FL,34711,Supermarket,43053,Met Inspection Requirements,684 E HIGHWAY 50 CLERMONT FL 34711,28.5497021,-81.746519
WALMART #0800 (MAIN),36108,2501 CITRUS BLVD,LEESBURG,FL,34748,Supermarket,43042,Met Inspection Requirements,2501 CITRUS BLVD LEESBURG FL 34748,28.842465,-81.899125
PUBLIX # 0015,288210,250 CITRUS TOWER BLVD,CLERMONT,FL,34711,Supermarket,43040,Met Inspection Requirements,250 CITRUS TOWER BLVD CLERMONT FL 34711,28.565762,-81.7413684
PUBLIX # 1275,333272,6551 NORTH ORANGE BLOSSOM TRAIL,MOUNT DORA,FL,32757,Supermarket,42958,Met Inspection Requirements,6551 NORTH ORANGE BLOSSOM TRAIL MOUNT DORA FL 32757,28.7798858,-81.6225791
PUBLIX # 0027,287330,13900 COUNTY ROAD 455 UNIT 110,CLERMONT,FL,34711,Supermarket,42957,Met Inspection Requirements,13900 COUNTY ROAD 455 UNIT 110 CLERMONT FL 34711,28.5491812,-81.6822852
WALMART #5299 (MAIN),295415,550 US HIGHWAY 27,CLERMONT,FL,34714,Supermarket,42951,Met Inspection Requirements,550 US HIGHWAY 27 CLERMONT FL 34714,28.3551328,-81.6726165
WALMART #705 (MAIN),33995,17030 US HIGHWAY 441,MOUNT DORA,FL,32757,Supermarket,42951,Met Inspection Requirements,17030 US HIGHWAY 441 MOUNT DORA FL 32757,28.8180529,-81.6729625
WINN DIXIE # 2337,14812,944 BICHARA BLVD,LADY LAKE,FL,32159,Supermarket,42935,Met Inspection Requirements,944 BICHARA BLVD LADY LAKE FL 32159,28.9364733,-81.9446619
PUBLIX # 0710,262656,27615 US HIGHWAY 27,LEESBURG,FL,34748,Supermarket,42929,Met Inspection Requirements,27615 US HIGHWAY 27 LEESBURG FL 34748,28.749145,-81.8790897
PUBLIX # 0815,274453,717 N 14TH ST,LEESBURG,FL,34748,Supermarket,42923,Met Inspection Requirements,717 N 14TH ST LEESBURG FL 34748,28.8192703,-81.8890112
PUBLIX # 0862,279430,2840 DAVID WALKER DR,EUSTIS,FL,32726,Supermarket,42914,Met Inspection Requirements,2840 DAVID WALKER DR EUSTIS FL 32726,28.824641,-81.7019945
PUBLIX # 0507,73555,1905 N HIGHWAY 19,EUSTIS,FL,32726,Supermarket,42898,Met Inspection Requirements,1905 N HIGHWAY 19 EUSTIS FL 32726,28.8712549,-81.691805
TARGET # 1519,281571,2660 E HIGHWAY 50,CLERMONT,FL,34711,Supermarket,42877,Met Inspection Requirements,2660 E HIGHWAY 50 CLERMONT FL 34711,28.5497361,-81.7053192
PUBLIX # 0447,65014,1120 BICHARA BLVD,LADY LAKE,FL,32159,Supermarket,42871,Met Inspection Requirements,1120 BICHARA BLVD LADY LAKE FL 32159,28.9395392,-81.9480011
WINN DIXIE # 2336,105915,27405 US HIGHWAY 27 STE 119,LEESBURG,FL,34748,Supermarket,42870,Met Inspection Requirements,27405 US HIGHWAY 27 STE 119 LEESBURG FL 34748,28.7464418,-81.8786883
SAVE-A-LOT #0302/4981,323972,1203 WEST COLONIAL DRIVE,CLERMONT,FL,34711,Supermarket,42867,Met Inspection Requirements,1203 WEST COLONIAL DRIVE CLERMONT FL 34711,28.5464758,-81.6696213
PUBLIX # 0684,260262,17445 US HIGHWAY 192,CLERMONT,FL,34714,Supermarket,42860,*,17445 US HIGHWAY 192 CLERMONT FL 34714,28.348573,-81.66573
WALMART #2695 (MAIN),303712,1450 JOHNS LAKE RD,CLERMONT,FL,34711,Supermarket,42850,*,1450 JOHNS LAKE RD CLERMONT FL 34711,28.5300238,-81.7313953
WINN DIXIE # 2335,251333,1955 N HIGHWAY 19,EUSTIS,FL,32726,Supermarket,42832,*,1955 N HIGHWAY 19 EUSTIS FL 32726,28.8742315,-81.6855645
BJ'S WHOLESALE CLUB # 0199,330070,2577 S HIGHWAY 27,CLERMONT,FL,34711,Supermarket,42809,*,2577 S HIGHWAY 27 CLERMONT FL 34711,28.5323675,-81.7349294
PUBLIX # 1269,337616,18995 US HIGHWAY 441,MOUNT DORA,FL,32757,Supermarket,42793,*,18995 US HIGHWAY 441 MOUNT DORA FL 32757,28.8246965,-81.6417293
PUBLIX # 0763,268791,4351 S HIGHWAY 27,CLERMONT,FL,34711,Supermarket,42776,*,4351 S HIGHWAY 27 CLERMONT FL 34711,28.5012322,-81.7165986
PUBLIX # 1499,369852,24420 STATE ROAD 44,EUSTIS,FL,32736,Supermarket,42775,*,24420 STATE ROAD 44 EUSTIS FL 32736,28.8514396,-81.5550846
SAVE-A-LOT #0158/5579,292590,1534B 3RD ST SW,WINTER HAVEN,FL,33880,Supermarket,43102,Met Inspection Requirements,1534B 3RD ST SW WINTER HAVEN FL 33880,28.0075167,-81.7305417
SUPER CHOICE FOOD STORE,5948,610 W MEMORIAL BLVD,LAKELAND,FL,33815,Supermarket,43089,Met Inspection Requirements,610 W MEMORIAL BLVD LAKELAND FL 33815,28.0543363,-81.9634048
BRAVO SUPERMARKET,345109,2435 US HIGHWAY 98 N,LAKELAND,FL,33805,Supermarket,43059,Met Inspection Requirements,2435 US HIGHWAY 98 N LAKELAND FL 33805,28.0749538,-81.9585323
PUBLIX # 1103,291297,606 HAVENDALE BLVD,AUBURNDALE,FL,33823,Supermarket,43052,Met Inspection Requirements with Check-Back,606 HAVENDALE BLVD AUBURNDALE FL 33823,28.0519441,-81.7749924
WINN DIXIE # 0701,22621,1860 STATE ROAD 60 E,LAKE WALES,FL,33853,Supermarket,43026,Met Inspection Requirements,1860 STATE ROAD 60 E LAKE WALES FL 33853,27.8940013,-81.5582907
PUBLIX # 0770,269824,8301 CHAMPIONS GATE BLVD,CHAMPIONS GATE,FL,33896,Supermarket,43026,Met Inspection Requirements,8301 CHAMPIONS GATE BLVD CHAMPIONS GATE FL 33896,28.2630448,-81.6192699
HARVEYS #1710,13530,2630 US HIGHWAY 92 E,LAKELAND,FL,33801,Supermarket,43019,Met Inspection Requirements,2630 US HIGHWAY 92 E LAKELAND FL 33801,28.0492662,-81.906926
PUBLIX # 1410,352423,6767 US HIGHWAY 98 N,LAKELAND,FL,33809,Supermarket,43018,Met Inspection Requirements,6767 US HIGHWAY 98 N LAKELAND FL 33809,28.1293674,-81.9719464
PUBLIX # 0557,103565,102 STATE ROAD 60 E,LAKE WALES,FL,33853,Supermarket,42976,Met Inspection Requirements,102 STATE ROAD 60 E LAKE WALES FL 33853,27.8926103,-81.5884966
PUBLIX # 1167,316378,39883 HIGHWAY 27,DAVENPORT,FL,33837,Supermarket,42976,Met Inspection Requirements,39883 HIGHWAY 27 DAVENPORT FL 33837,28.1785865,-81.6378497
PUBLIX # 0671,264448,2125 E COUNTY ROAD 540A,LAKELAND,FL,33813,Supermarket,42965,Met Inspection Requirements,2125 E COUNTY ROAD 540A LAKELAND FL 33813,27.9528148,-81.9250619
PUBLIX # 1171,321004,5185 US HIGHWAY 98 S,HIGHLAND CITY,FL,33846,Supermarket,42962,Met Inspection Requirements,5185 US HIGHWAY 98 S HIGHLAND CITY FL 33846,27.9697361,-81.8835111
PUBLIX # 0448,65023,6031 CYPRESS GARDENS BLVD,WINTER HAVEN,FL,33884,Supermarket,42961,Met Inspection Requirements,6031 CYPRESS GARDENS BLVD WINTER HAVEN FL 33884,27.9872736,-81.6859375
WINN DIXIE # 0705,17058,36019 HWY 27,HAINES CITY,FL,33844,Supermarket,42958,Met Inspection Requirements,36019 HWY 27 HAINES CITY FL 33844,28.123718,-81.6372417
HARVEYS #1715,18041,2700 RECKER HWY,WINTER HAVEN,FL,33880,Supermarket,42956,Met Inspection Requirements,2700 RECKER HWY WINTER HAVEN FL 33880,28.0146991,-81.7588597
PUBLIX # 0352,51009,3636 HARDEN BLVD,LAKELAND,FL,33803,Supermarket,42955,Met Inspection Requirements,3636 HARDEN BLVD LAKELAND FL 33803,27.9981092,-81.9719651
PUBLIX # 1270,332422,2515 S FLORIDA AVE,LAKELAND,FL,33803,Supermarket,42955,Met Inspection Requirements,2515 S FLORIDA AVE LAKELAND FL 33803,28.0149706,-81.9586239
ALDI # 0033,333287,35770 HWY 27,HAINES CITY,FL,33844,Supermarket,42954,Met Inspection Requirements,35770 HWY 27 HAINES CITY FL 33844,28.1202407,-81.6406052
WINN DIXIE # 0612,13343,445 HAVENDALE BLVD,AUBURNDALE,FL,33823,Supermarket,42954,Met Inspection Requirements,445 HAVENDALE BLVD AUBURNDALE FL 33823,28.0561689,-81.7767087
WALMART #718 (MAIN),292241,2120 US HIGHWAY 92 W,AUBURNDALE,FL,33823,Supermarket,42947,Met Inspection Requirements with Check-Back,2120 US HIGHWAY 92 W AUBURNDALE FL 33823,28.0600107,-81.8162319
SAVE-A-LOT #0159/5580,297176,464 HAVENDALE BLVD,AUBURNDALE,FL,33823,Supermarket,42947,Met Inspection Requirements with Check-Back,464 HAVENDALE BLVD AUBURNDALE FL 33823,28.0536872,-81.7761014
SAVE-A-LOT # 0106/5493,262460,330 E VAN FLEET DR,BARTOW,FL,33830,Supermarket,42947,Met Inspection Requirements,330 E VAN FLEET DR BARTOW FL 33830,27.905532,-81.8410872
SAVE-A-LOT #0199/5626,261011,917 E MEMORIAL BLVD,LAKELAND,FL,33801,Supermarket,42944,Met Inspection Requirements with Check-Back,917 E MEMORIAL BLVD LAKELAND FL 33801,28.0541361,-81.9472162
SAVE-A-LOT # 0303/4982,327065,2021 GEORGE JENKINS BLVD,LAKELAND,FL,33815,Supermarket,42936,Met Inspection Requirements,2021 GEORGE JENKINS BLVD LAKELAND FL 33815,28.0427809,-81.9888689
PUBLIX # 1195,323077,7800 LAKE WILSON RD,DAVENPORT,FL,33896,Supermarket,42935,Met Inspection Requirements,7800 LAKE WILSON RD DAVENPORT FL 33896,28.2577829,-81.5917554
SAVE-A-LOT # 0189/5606,299776,630 STATE ROAD 60 W,LAKE WALES,FL,33853,Supermarket,42927,Met Inspection Requirements,630 STATE ROAD 60 W LAKE WALES FL 33853,27.9001472,-81.6038021
SAM'S CLUB # 4794,313777,3530 LAKELAND HIGHLANDS RD,LAKELAND,FL,33803,Supermarket,42922,Met Inspection Requirements,3530 LAKELAND HIGHLANDS RD LAKELAND FL 33803,27.9980621,-81.9220442
WINN DIXIE # 0631,52024,2900 LAKELAND HIGHLANDS RD,LAKELAND,FL,33803,Supermarket,42912,Met Inspection Requirements,2900 LAKELAND HIGHLANDS RD LAKELAND FL 33803,28.0096862,-81.9224937
WINN DIXIE # 0632,34070,6902 S FLORIDA AVE,LAKELAND,FL,33813,Supermarket,42909,Met Inspection Requirements with Check-Back,6902 S FLORIDA AVE LAKELAND FL 33813,27.9397923,-81.9723976
PUBLIX # 0011,22667,1617 BARTOW RD,LAKELAND,FL,33801,Supermarket,42899,Met Inspection Requirements,1617 BARTOW RD LAKELAND FL 33801,28.0231724,-81.926489
HARVEY'S SUPERMARKET #1712,37003,1305 ARIANA ST,LAKELAND,FL,33803,Supermarket,42893,Met Inspection Requirements,1305 ARIANA ST LAKELAND FL 33803,28.0269651,-81.975706
PUBLIX # 0836,278082,1395 6TH ST NW,WINTER HAVEN,FL,33881,Supermarket,42892,Met Inspection Requirements,1395 6TH ST NW WINTER HAVEN FL 33881,28.0348838,-81.7344348
EL RANCHO MEXICANO,303294,4085 STATE ROAD 60 W,MULBERRY,FL,33860,Supermarket,42888,Met Inspection Requirements,4085 STATE ROAD 60 W MULBERRY FL 33860,27.9135797,-82.018761
WALMART #779 (MAIN),34655,3501 S FLORIDA AVE,LAKELAND,FL,33803,Supermarket,42878,Met Inspection Requirements,3501 S FLORIDA AVE LAKELAND FL 33803,28.0007878,-81.9594731
WALMART #1245 (MAIN),264754,5800 US HIGHWAY 98 N,LAKELAND,FL,33809,Supermarket,42878,Met Inspection Requirements,5800 US HIGHWAY 98 N LAKELAND FL 33809,28.1194921,-81.9770751
WALMART #5035 (MAIN),287729,6745 N CHURCH AVE,MULBERRY,FL,33860,Supermarket,42865,Met Inspection Requirements,6745 N CHURCH AVE MULBERRY FL 33860,27.9334304,-81.9703011
PUBLIX # 0879,285386,2424 SAND MINE RD,DAVENPORT,FL,33897,Supermarket,42828,*,2424 SAND MINE RD DAVENPORT FL 33897,28.3111052,-81.6698785
TARGET # 2366,319985,5000 GRANDVIEW PKWY,DAVENPORT,FL,33837,Supermarket,42824,*,5000 GRANDVIEW PKWY DAVENPORT FL 33837,28.2334183,-81.6442867
WALMART #3347 (MAIN),305218,7450 CYPRESS GARDENS BLVD,WINTER HAVEN,FL,33884,Supermarket,42815,*,7450 CYPRESS GARDENS BLVD WINTER HAVEN FL 33884,27.9768941,-81.649205
SAVE A LOT # 788/6964,354075,4985 US 98 NORTH,LAKELAND,FL,33809,Supermarket,42814,*,4985 US 98 NORTH LAKELAND FL 33809,28.1050762,-81.9736195
ALDI # 0031,324109,4745 US HIGHWAY 98 N,LAKELAND,FL,33809,Supermarket,42802,*,4745 US HIGHWAY 98 N LAKELAND FL 33809,28.1032902,-81.97273
WALMART #859 (MAIN),259332,2000 STATE ROAD 60 E,LAKE WALES,FL,33898,Supermarket,42796,*,2000 STATE ROAD 60 E LAKE WALES FL 33898,27.8919436,-81.553132
PUBLIX # 1076,289455,617 US HIGHWAY 17 92 W,HAINES CITY,FL,33844,Supermarket,42794,*,617 US HIGHWAY 17 92 W HAINES CITY FL 33844,28.105319,-81.63855
WALMART #725 (MAIN),259248,36205 HWY 27,HAINES CITY,FL,33844,Supermarket,42788,*,36205 HWY 27 HAINES CITY FL 33844,28.1260433,-81.636715
SAM'S CLUB # 6441,63898,4600 US HIGHWAY 98 N,LAKELAND,FL,33809,Supermarket,42783,*,4600 US HIGHWAY 98 N LAKELAND FL 33809,28.1013832,-81.9768424
PUBLIX # 0392,53961,5375 N SOCRUM LOOP RD,LAKELAND,FL,33809,Supermarket,42780,*,5375 N SOCRUM LOOP RD LAKELAND FL 33809,28.111957,-81.9450236
PUBLIX # 0097,288565,23965 HWY 27,LAKE WALES,FL,33859,Supermarket,42773,*,23965 HWY 27 LAKE WALES FL 33859,27.9586207,-81.6208756
PUBLIX # 1204,323541,884 CYPRESS GARDENS BLVD,WINTER HAVEN,FL,33880,Supermarket,42773,*,884 CYPRESS GARDENS BLVD WINTER HAVEN FL 33880,28.0027192,-81.7160453
WALMART #968 (MAIN),37007,355 CYPRESS GARDENS BLVD,WINTER HAVEN,FL,33880,Supermarket,42767,*,355 CYPRESS GARDENS BLVD WINTER HAVEN FL 33880,28.0062978,-81.7225238
PUBLIX # 0702,262225,2300 GRIFFIN RD,LAKELAND,FL,33810,Supermarket,42759,*,2300 GRIFFIN RD LAKELAND FL 33810,28.0792575,-81.9922549
WINN DIXIE # 0713,37100,28047 HWY 27,DUNDEE,FL,33838,Supermarket,42746,*,28047 HWY 27 DUNDEE FL 33838,28.0162926,-81.6300811
WALMART #580 (MAIN),33118,1050 E VAN FLEET DR,BARTOW,FL,33830,Supermarket,42716,*,1050 E VAN FLEET DR BARTOW FL 33830,27.9070579,-81.8334303
PUBLIX # 0356,7286,4730 S FLORIDA AVE,LAKELAND,FL,33813,Supermarket,42710,*,4730 S FLORIDA AVE LAKELAND FL 33813,27.9782999,-81.955914
SAVE-A-LOT # 0173/5591,31529,1687 E HINSON AVE,HAINES CITY,FL,33844,Supermarket,42709,*,1687 E HINSON AVE HAINES CITY FL 33844,28.1053408,-81.6186426
PUBLIX # 0425,59608,1090 SPIRIT LAKE RD,WINTER HAVEN,FL,33880,Supermarket,42703,*,1090 SPIRIT LAKE RD WINTER HAVEN FL 33880,28.0057775,-81.7769297
EL ZOCALO SUPERMARKET,335995,452 US HIGHWAY 17 92 N,HAINES CITY,FL,33844,Supermarket,42702,*,452 US HIGHWAY 17 92 N HAINES CITY FL 33844,28.1123492,-81.6183609
WINN DIXIE # 0664,259784,6600 N SOCRUM LOOP RD,LAKELAND,FL,33809,Supermarket,42692,*,6600 N SOCRUM LOOP RD LAKELAND FL 33809,28.1275395,-81.9482076
PUBLIX # 1399,346993,255 E VAN FLEET DR,BARTOW,FL,33830,Supermarket,42690,*,255 E VAN FLEET DR BARTOW FL 33830,27.9024703,-81.841754
PUBLIX # 0791,271985,2040 SHEPHERD RD,MULBERRY,FL,33860,Supermarket,42675,Pass*,2040 SHEPHERD RD MULBERRY FL 33860,27.9367333,-81.9882806
WALMART #5214,380887,2855 N OLD LAKE WILSON ROAD,KISSIMMEE,FL,34747,Supermarket,43073,Met Inspection Requirements,2855 N OLD LAKE WILSON ROAD KISSIMMEE FL 34747,28.3312169,-81.5883965
PUBLIX #1607,380040,3221 VINELAND RD,KISSIMMEE,FL,34746,Supermarket,43006,Met Inspection Requirements,3221 VINELAND RD KISSIMMEE FL 34746,28.3422003,-81.4833103
BRAVO,316779,4651 OLD PLEASANT HILL RD,KISSIMMEE,FL,34759,Supermarket,42971,Met Inspection Requirements,4651 OLD PLEASANT HILL RD KISSIMMEE FL 34759,28.146455,-81.4424997
TROPICAL MEAT AND PRODUCE,355113,519 E VINE ST,KISSIMMEE,FL,34744,Supermarket,42969,Met Inspection Requirements with Check-Back,519 E VINE ST KISSIMMEE FL 34744,28.3050282,-81.3989556
SEDANO'S SUPERMARKET # 0039 REAL E LLC,335046,1100 N JOHN YOUNG PKWY,KISSIMMEE,FL,34741,Supermarket,42962,Met Inspection Requirements,1100 N JOHN YOUNG PKWY KISSIMMEE FL 34741,28.3019756,-81.417527
SAM'S CLUB # 4782,281561,4763 W IRLO BRONSON MEMORIAL HWY,KISSIMMEE,FL,34746,Supermarket,42962,Met Inspection Requirements,4763 W IRLO BRONSON MEMORIAL HWY KISSIMMEE FL 34746,28.3269396,-81.4678572
PUBLIX # 0758,268643,841 CYPRESS PKWY,POINCIANA,FL,34759,Supermarket,42961,Met Inspection Requirements,841 CYPRESS PKWY POINCIANA FL 34759,28.1483935,-81.451539
UNIDOS SUPERMARKET,332794,2433 PLEASANT HILL RD,KISSIMMEE,FL,34746,Supermarket,42961,Met Inspection Requirements,2433 PLEASANT HILL RD KISSIMMEE FL 34746,28.2300024,-81.4356096
WALMART #5420 (MAIN),299965,3250 VINELAND RD,KISSIMMEE,FL,34746,Supermarket,42958,Met Inspection Requirements,3250 VINELAND RD KISSIMMEE FL 34746,28.3415667,-81.4862579
WINN DIXIE # 2207,286648,3318 CANOE CREEK RD,SAINT CLOUD,FL,34772,Supermarket,42955,Met Inspection Requirements,3318 CANOE CREEK RD SAINT CLOUD FL 34772,28.1994198,-81.294256
THE FRESH MARKET #225,373182,612 CENTERVIEW BLVD,KISSIMMEE,FL,34741,Supermarket,42950,Met Inspection Requirements,612 CENTERVIEW BLVD KISSIMMEE FL 34741,28.3405,-81.4072801
THE MEXICAN MARKET & RESTAURANT INC,347961,2272 W COLUMBIA AVE,KISSIMMEE,FL,34741,Supermarket,42919,Met Inspection Requirements,2272 W COLUMBIA AVE KISSIMMEE FL 34741,28.307861,-81.4278269
PUBLIX # 1045,302838,1951 S NARCOOSSEE RD,SAINT CLOUD,FL,34771,Supermarket,42916,Met Inspection Requirements,1951 S NARCOOSSEE RD SAINT CLOUD FL 34771,28.2476697,-81.2423471
BRAVO SUPERMARKET,310998,4108 W VINE ST,KISSIMMEE,FL,34741,Supermarket,42914,Met Inspection Requirements,4108 W VINE ST KISSIMMEE FL 34741,28.3036965,-81.4460418
PUBLIX # 1431,353611,29 BLAKE BLVD,CELEBRATION,FL,34747,Supermarket,42912,Met Inspection Requirements with Check-Back,29 BLAKE BLVD CELEBRATION FL 34747,28.3311593,-81.526667
WINN DIXIE # 2379,268821,7840 W IRLO BRONSON MEMORIAL HWY,KISSIMMEE,FL,34747,Supermarket,42900,Met Inspection Requirements,7840 W IRLO BRONSON MEMORIAL HWY KISSIMMEE FL 34747,28.3403181,-81.600865
S MART SUPERMARKET,375285,4030 W VINE ST,KISSIMMEE,FL,34741,Supermarket,42899,Met Inspection Requirements,4030 W VINE ST KISSIMMEE FL 34741,28.3035296,-81.4445802
WALMART #1086 (MAIN),103229,4400 13TH ST,SAINT CLOUD,FL,34769,Supermarket,42873,Met Inspection Requirements,4400 13TH ST SAINT CLOUD FL 34769,28.2554272,-81.3156991
EL AGUILA SUPERMARKET,319698,2090 E OSCEOLA PKWY,KISSIMMEE,FL,34743,Supermarket,42838,*,2090 E OSCEOLA PKWY KISSIMMEE FL 34743,28.3443359,-81.3601199
GOODIES SUPERMARKET,308229,2901 PARKWAY BLVD STE B8,KISSIMMEE,FL,34747,Supermarket,42838,*,2901 PARKWAY BLVD STE B8 KISSIMMEE FL 34747,28.333999,-81.5327138
WALMART #5265,372815,2125 NOLTE RD,ST CLOUD,FL,34772,Supermarket,42824,*,2125 NOLTE RD ST CLOUD FL 34772,28.2227755,-81.2938471
INDIAN WELLS SUPERMARKET,321041,5347 W IRLO BRONSON MEMORIAL HWY,KISSIMMEE,FL,34746,Supermarket,42821,*,5347 W IRLO BRONSON MEMORIAL HWY KISSIMMEE FL 34746,28.33349,-81.4971701
PUBLIX # 1181,322839,3839 PLEASANT HILL RD,KISSIMMEE,FL,34746,Supermarket,42811,*,3839 PLEASANT HILL RD KISSIMMEE FL 34746,28.1811731,-81.438706
WALMART #4159 (MAIN),363209,2850 E OSCEOLA PKWY,KISSIMMEE,FL,34743,Supermarket,42807,*,2850 E OSCEOLA PKWY KISSIMMEE FL 34743,28.3421312,-81.3264606
TARGET # 1918,294865,4795 W IRLO BRONSON MEMORIAL HWY,KISSIMMEE,FL,34746,Supermarket,42804,*,4795 W IRLO BRONSON MEMORIAL HWY KISSIMMEE FL 34746,28.3320684,-81.4711982
BJ'S WHOLESALE CLUB # 0154,287825,1100 W OSCEOLA PKWY,KISSIMMEE,FL,34741,Supermarket,42803,*,1100 W OSCEOLA PKWY KISSIMMEE FL 34741,28.3394868,-81.4145722
WALMART MARKET #5846 (MAIN),346732,3183 W VINE ST,KISSIMMEE,FL,34741,Supermarket,42802,*,3183 W VINE ST KISSIMMEE FL 34741,28.3065457,-81.4353721
WALMART #2881 (MAIN),270475,1471 E OSCEOLA PKWY,KISSIMMEE,FL,34744,Supermarket,42801,*,1471 E OSCEOLA PKWY KISSIMMEE FL 34744,28.3438537,-81.3859372
WALMART #5250 (MAIN),294107,904 CYPRESS PKWY,POINCIANA,FL,34759,Supermarket,42800,*,904 CYPRESS PKWY POINCIANA FL 34759,28.1425619,-81.4483332
PUBLIX # 1408,351100,2338 E IRLO BRONSON MEMORIAL HWY,KISSIMMEE,FL,34744,Supermarket,42796,*,2338 E IRLO BRONSON MEMORIAL HWY KISSIMMEE FL 34744,28.2794649,-81.3477861
PUBLIX # 0551,101104,14928 E ORANGE LAKE BLVD,KISSIMMEE,FL,34747,Supermarket,42795,*,14928 E ORANGE LAKE BLVD KISSIMMEE FL 34747,28.3491195,-81.6141876
PUBLIX # 1216,324875,3372 CANOE CREEK RD,SAINT CLOUD,FL,34772,Supermarket,42793,*,3372 CANOE CREEK RD SAINT CLOUD FL 34772,28.1964955,-81.2948557
SW DISNEY SUPER TARGET # 2370,328000,3200 ROLLING OAKS BLVD,KISSIMMEE,FL,34747,Supermarket,42788,*,3200 ROLLING OAKS BLVD KISSIMMEE FL 34747,28.3437018,-81.6138418
WALMART #0817 (MAIN),105391,4444 W VINE ST,KISSIMMEE,FL,34746,Supermarket,42772,*,4444 W VINE ST KISSIMMEE FL 34746,28.3017308,-81.4588234
WINN DIXIE # 2238,107821,4855 E IRLO BRONSON MEMORIAL HWY,SAINT CLOUD,FL,34771,Supermarket,42766,*,4855 E IRLO BRONSON MEMORIAL HWY SAINT CLOUD FL 34771,28.247629,-81.245146
PUBLIX # 0707,265376,1910 N JOHN YOUNG PKWY,KISSIMMEE,FL,34741,Supermarket,42760,*,1910 N JOHN YOUNG PKWY KISSIMMEE FL 34741,28.3088747,-81.4180983
PUBLIX # 1179,322534,3343 S ORANGE BLOSSOM TRL,KISSIMMEE,FL,34746,Supermarket,42720,*,3343 S ORANGE BLOSSOM TRL KISSIMMEE FL 34746,28.2619914,-81.4382691
PUBLIX SUPER MARKETS INC # 1502,371812,2625 SIMPSON RD,KISSIMMEE,FL,34744,Supermarket,42705,*,2625 SIMPSON RD KISSIMMEE FL 34744,28.3203175,-81.3372817
WINN DIXIE # 2260,38410,1347 E VINE ST,KISSIMMEE,FL,34744,Supermarket,42691,*,1347 E VINE ST KISSIMMEE FL 34744,28.3055707,-81.389763
PUBLIX # 0235,287559,4401 13TH ST,SAINT CLOUD,FL,34769,Supermarket,42682,*,4401 13TH ST SAINT CLOUD FL 34769,28.2509166,-81.316943
PUBLIX # 1194,324606,3040 DYER BLVD,KISSIMMEE,FL,34741,Supermarket,42675,Pass*,3040 DYER BLVD KISSIMMEE FL 34741,28.3391698,-81.4324694
PUBLIX # 1398,349556,5380 STADIUM PKWY STE 100,ROCKLEDGE,FL,32955,Supermarket,43102,Met Inspection Requirements,5380 STADIUM PKWY STE 100 ROCKLEDGE FL 32955,28.2683113,-80.7388793
MELBOURNE BCH SUPERMARKET,54599,302 OCEAN AVE,MELBOURNE BEACH,FL,32951,Supermarket,43095,Met Inspection Requirements,302 OCEAN AVE MELBOURNE BEACH FL 32951,28.0688598,-80.5591464
DOWNTOWN DISCOUNT PRODUCE,299216,7856 ELLIS RD,MELBOURNE,FL,32904,Supermarket,43087,Met Inspection Requirements,7856 ELLIS RD MELBOURNE FL 32904,28.1003655,-80.6856053
WINN DIXIE # 2329,37629,6257 N HIGHWAY 1,PORT SAINT JOHN,FL,32927,Supermarket,43080,Met Inspection Requirements,6257 N HIGHWAY 1 PORT SAINT JOHN FL 32927,28.4710858,-80.7685863
PUBLIX # 0202,38487,3200 LAKE WASHINGTON RD,MELBOURNE,FL,32934,Supermarket,43075,Met Inspection Requirements,3200 LAKE WASHINGTON RD MELBOURNE FL 32934,28.1475436,-80.6744461
PUBLIX # 0467,68734,7777 N WICKHAM RD,MELBOURNE,FL,32940,Supermarket,43074,Met Inspection Requirements,7777 N WICKHAM RD MELBOURNE FL 32940,28.2294583,-80.6971177
PUBLIX # 0760,271133,2301 STATE ROAD 524,COCOA,FL,32926,Supermarket,43073,Met Inspection Requirements,2301 STATE ROAD 524 COCOA FL 32926,28.3951585,-80.7646803
TARGET # 1934,295254,8455 N WICKHAM RD,VIERA,FL,32940,Supermarket,43070,Met Inspection Requirements,8455 N WICKHAM RD VIERA FL 32940,28.2302234,-80.7201642
PUBLIX # 0499,71738,3830 S HIGHWAY A1A,MELBOURNE BEACH,FL,32951,Supermarket,43067,Met Inspection Requirements,3830 S HIGHWAY A1A MELBOURNE BEACH FL 32951,28.0154753,-80.5344707
WALMART #3538 (MAIN),278941,8500 N WICKHAM RD,VIERA,FL,32940,Supermarket,43066,Met Inspection Requirements,8500 N WICKHAM RD VIERA FL 32940,28.2303213,-80.7225336
WINN DIXIE # 2328,260182,961 E EAU GALLIE BLVD,INDIAN HARBOUR BEACH,FL,32937,Supermarket,43056,Met Inspection Requirements,961 E EAU GALLIE BLVD INDIAN HARBOUR BEACH FL 32937,28.1378022,-80.5844414
WINN DIXIE # 2327,14214,1535 N SINGLETON AVE,TITUSVILLE,FL,32796,Supermarket,43056,Met Inspection Requirements,1535 N SINGLETON AVE TITUSVILLE FL 32796,28.6380695,-80.8448846
WINN DIXIE # 2326,14215,1564 HARRISON ST,TITUSVILLE,FL,32780,Supermarket,43048,Met Inspection Requirements,1564 HARRISON ST TITUSVILLE FL 32780,28.5867559,-80.8207914
WALMART MARKET #5365 (MAIN),297513,3950 N WICKHAM RD,MELBOURNE,FL,32935,Supermarket,43040,Met Inspection Requirements,3950 N WICKHAM RD MELBOURNE FL 32935,28.1712899,-80.6739202
WINN DIXIE # 2333,254701,5270 BABCOCK ST NE UNIT 29&30,PALM BAY,FL,32905,Supermarket,43025,Met Inspection Requirements,5270 BABCOCK ST NE UNIT 29&30 PALM BAY FL 32905,28.0174719,-80.6238893
WALMART #5455 (MAIN),301870,1040 MALABAR RD SE,PALM BAY,FL,32907,Supermarket,42976,Met Inspection Requirements,1040 MALABAR RD SE PALM BAY FL 32907,27.9986777,-80.641774
PUBLIX # 1421,366196,2000 CHENEY HWY,TITUSVILLE,FL,32780,Supermarket,42962,Met Inspection Requirements,2000 CHENEY HWY TITUSVILLE FL 32780,28.5592558,-80.8255818
HARVEYS #1714,10274,1066 CLEARLAKE RD,COCOA,FL,32922,Supermarket,42954,Met Inspection Requirements,1066 CLEARLAKE RD COCOA FL 32922,28.3720713,-80.7535041
SAM'S CLUB # 8141,52783,4255 W NEW HAVEN AVE,MELBOURNE,FL,32904,Supermarket,42950,Met Inspection Requirements,4255 W NEW HAVEN AVE MELBOURNE FL 32904,28.0769684,-80.6961238
WINN DIXIE#2325,379298,100 CANAVERAL PLAZA BLVD,COCOA BEACH,FL,32931,Supermarket,42934,Met Inspection Requirements,100 CANAVERAL PLAZA BLVD COCOA BEACH FL 32931,28.3559936,-80.6100461
PUBLIX # 1358,344086,3275 GARDEN ST,TITUSVILLE,FL,32796,Supermarket,42928,Met Inspection Requirements,3275 GARDEN ST TITUSVILLE FL 32796,28.6173746,-80.8432294
WALMART #649,72544,3175 CHENEY HWY,TITUSVILLE,FL,32780,Supermarket,42921,Met Inspection Requirements,3175 CHENEY HWY TITUSVILLE FL 32780,28.5553154,-80.8427245
PUBLIX # 0264,10499,1880 US HIGHWAY 1,ROCKLEDGE,FL,32955,Supermarket,42914,Met Inspection Requirements,1880 US HIGHWAY 1 ROCKLEDGE FL 32955,28.3284678,-80.7192652
PUBLIX # 0424,61270,1150 MALABAR RD SE,PALM BAY,FL,32907,Supermarket,42909,Met Inspection Requirements,1150 MALABAR RD SE PALM BAY FL 32907,27.9974999,-80.63647
PUBLIX # 0523,73957,7325 N HIGHWAY 1,COCOA,FL,32927,Supermarket,42907,Met Inspection Requirements,7325 N HIGHWAY 1 COCOA FL 32927,28.4878084,-80.7743935
WALMART MARKET # 2944 (MAIN),381213,955 S WOODLAND BLVD,DELAND,FL,32724,Supermarket,43103,Met Inspection Requirements,955 S WOODLAND BLVD DELAND FL 32724,29.0117108,-81.3026401
WALMART MARKET #3862 (MAIN),308677,1905 N NOVA RD,HOLLY HILL,FL,32117,Supermarket,43096,Met Inspection Requirements,1905 N NOVA RD HOLLY HILL FL 32117,29.2489005,-81.0672544
PUBLIX # 0229,280715,709 E 3RD AVE,NEW SMYRNA BEACH,FL,32169,Supermarket,43089,Met Inspection Requirements,709 E 3RD AVE NEW SMYRNA BEACH FL 32169,29.0267982,-80.8945934
WALMART #6398,369253,1569 SAXON BLVD,DELTONA,FL,32725,Supermarket,43083,Met Inspection Requirements,1569 SAXON BLVD DELTONA FL 32725,28.9068602,-81.2452134
SAVE-A-LOT #45082,372476,720 S DIXIE FREEWAY,NEW SMYRNA BEACH,FL,32168,Supermarket,43060,Met Inspection Requirements,720 S DIXIE FREEWAY NEW SMYRNA BEACH FL 32168,29.0156987,-80.922931
WINN DIXIE # 2313,253895,2880 HOWLAND BLVD,DELTONA,FL,32725,Supermarket,43042,Met Inspection Requirements,2880 HOWLAND BLVD DELTONA FL 32725,28.9449845,-81.2246049
WALMART # 3606,375907,185 NORTH CHARLES RICHARD BEALL BOULEVARD,DEBARY,FL,32713,Supermarket,43025,Met Inspection Requirements,185 NORTH CHARLES RICHARD BEALL BOULEVARD DEBARY FL 32713,28.8987469,-81.3051416
ALDI # 112,379969,1106 BEVILLE RD,DAYTONA BEACH,FL,32114,Supermarket,43004,Met Inspection Requirements,1106 BEVILLE RD DAYTONA BEACH FL 32114,29.1759041,-81.0308788
ALDI #50,374325,2335 STATE ROAD 44,NEW SMYRNA BEACH,FL,32168,Supermarket,42972,Met Inspection Requirements,2335 STATE ROAD 44 NEW SMYRNA BEACH FL 32168,29.0141968,-80.9631983
SAM'S CLUB # 8138,53661,1175 BEVILLE RD,DAYTONA BEACH,FL,32119,Supermarket,42955,Met Inspection Requirements,1175 BEVILLE RD DAYTONA BEACH FL 32119,29.1716151,-81.0322112
WALMART #563 (MAIN),267862,2400 VETERANS MEMORIAL PKWY,ORANGE CITY,FL,32763,Supermarket,42954,Met Inspection Requirements,2400 VETERANS MEMORIAL PKWY ORANGE CITY FL 32763,28.9136522,-81.278917
WALMART #1079 (MAIN),347295,3155 STATE ROAD 44,NEW SMYRNA BEACH,FL,32168,Supermarket,42935,Met Inspection Requirements,3155 STATE ROAD 44 NEW SMYRNA BEACH FL 32168,29.0124173,-81.01015
PUBLIX # 0827,276145,1850 RIDGEWOOD AVE,HOLLY HILL,FL,32117,Supermarket,42893,Met Inspection Requirements,1850 RIDGEWOOD AVE HOLLY HILL FL 32117,29.2618586,-81.0519991
WINN DIXIE # 2341,255295,2701 S WOODLAND BLVD,DELAND,FL,32720,Supermarket,42888,Met Inspection Requirements,2701 S WOODLAND BLVD DELAND FL 32720,28.9812304,-81.2971049
PUBLIX # 0335,38922,1930 STATE ROAD 44,NEW SMYRNA BEACH,FL,32168,Supermarket,42871,Met Inspection Requirements,1930 STATE ROAD 44 NEW SMYRNA BEACH FL 32168,29.0119521,-80.9455386
WINN DIXIE # 2304,102755,1835 STATE ROAD 44,NEW SMYRNA BEACH,FL,32168,Supermarket,42866,Met Inspection Requirements,1835 STATE ROAD 44 NEW SMYRNA BEACH FL 32168,29.0161545,-80.9438659
WINN DIXIE # 2237,38128,2 N CHARLES RICHARD BEALL BLVD,DEBARY,FL,32713,Supermarket,42864,Met Inspection Requirements,2 N CHARLES RICHARD BEALL BLVD DEBARY FL 32713,28.8907572,-81.3078491
PUBLIX # 0768,267850,2400 S RIDGEWOOD AVE,SOUTH DAYTONA,FL,32119,Supermarket,42838,*,2400 S RIDGEWOOD AVE SOUTH DAYTONA FL 32119,29.164911,-81.0012711
WALMART #860 (MAIN),287618,1699 N WOODLAND BLVD,DELAND,FL,32720,Supermarket,42831,*,1699 N WOODLAND BLVD DELAND FL 32720,29.0618488,-81.3017379
PUBLIX # 1444,10834,299 E INTERNATIONAL SPEEDWAY BLVD,DELAND,FL,32724,Supermarket,42793,*,299 E INTERNATIONAL SPEEDWAY BLVD DELAND FL 32724,29.0564287,-81.3010461
WINN DIXIE # 2342,30235,3120 N WOODLAND BLVD,DELAND,FL,32720,Supermarket,42782,*,3120 N WOODLAND BLVD DELAND FL 32720,29.0844948,-81.3230255
BRAVO SUPERMARKET #045131,372874,1509 S NOVA RD,DAYTONA BEACH,FL,32114,Supermarket,42780,*,1509 S NOVA RD DAYTONA BEACH FL 32114,29.1770535,-81.0268808
PUBLIX # 1259,325628,3821 S NOVA RD,PORT ORANGE,FL,32127,Supermarket,42774,*,3821 S NOVA RD PORT ORANGE FL 32127,29.1268813,-81.0023442
PUBLIX # 0429,61806,2970 S RIDGEWOOD AVE,EDGEWATER,FL,32141,Supermarket,42773,*,2970 S RIDGEWOOD AVE EDGEWATER FL 32141,28.9486779,-80.8857086
PUBLIX # 0422,4775,2556 ENTERPRISE RD,ORANGE CITY,FL,32763,Supermarket,42769,*,2556 ENTERPRISE RD ORANGE CITY FL 32763,28.9150232,-81.2966568
PUBLIX # 0814,273688,2595 N ATLANTIC AVE,DAYTONA BEACH,FL,32118,Supermarket,42759,*,2595 N ATLANTIC AVE DAYTONA BEACH FL 32118,29.2623615,-81.0285463
BJ'S WHOLESALE CLUB # 0361,358062,1800 DUNLAWTON AVE,PORT ORANGE,FL,32127,Supermarket,42754,*,1800 DUNLAWTON AVE PORT ORANGE FL 32127,29.1074841,-81.0242695
WINN DIXIE # 2343,35679,1050 W NEW YORK AVE,DELAND,FL,32720,Supermarket,42752,*,1050 W NEW YORK AVE DELAND FL 32720,29.0266554,-81.323652
WALMART #3310 (MAIN),312301,101 HOWLAND BLVD,DELTONA,FL,32738,Supermarket,42752,*,101 HOWLAND BLVD DELTONA FL 32738,28.8697909,-81.1641362
PUBLIX # 1450,358833,1660 TAYLOR RD,PORT ORANGE,FL,32128,Supermarket,42740,*,1660 TAYLOR RD PORT ORANGE FL 32128,29.1060625,-81.0339797
PUBLIX # 1290,335879,1258 OCEAN SHORE BLVD,ORMOND BEACH,FL,32176,Supermarket,42738,*,1258 OCEAN SHORE BLVD ORMOND BEACH FL 32176,29.323651,-81.0571994
DOLLAR GENERAL MARKET # 14232,353667,4190 S ATLANTIC AVE,NEW SMYRNA BEACH,FL,32169,Supermarket,42727,*,4190 S ATLANTIC AVE NEW SMYRNA BEACH FL 32169,29.0015368,-80.8764575
PUBLIX # 0660,258268,3750 ROSCOMMON DR,ORMOND BEACH,FL,32174,Supermarket,42719,*,3750 ROSCOMMON DR ORMOND BEACH FL 32174,29.4012502,-81.1480816
WALMART #613,72867,1521 W GRANADA BLVD,ORMOND BEACH,FL,32174,Supermarket,42710,*,1521 W GRANADA BLVD ORMOND BEACH FL 32174,29.2587153,-81.1149615
WALMART #582 (MAIN),256448,1590 DUNLAWTON AVE,PORT ORANGE,FL,32127,Supermarket,42710,*,1590 DUNLAWTON AVE PORT ORANGE FL 32127,29.1169153,-81.0194499
PUBLIX # 1330,325569,2100 SAXON BLVD,DELTONA,FL,32725,Supermarket,42709,*,2100 SAXON BLVD DELTONA FL 32725,28.9094398,-81.2662684
PUBLIX # 1187,321147,2783 ELKCAM BLVD,DELTONA,FL,32738,Supermarket,42706,*,2783 ELKCAM BLVD DELTONA FL 32738,28.9269685,-81.187791
PUBLIX # 0304,37042,1500 BEVILLE RD STE 300,DAYTONA BEACH,FL,32114,Supermarket,42682,*,1500 BEVILLE RD STE 300 DAYTONA BEACH FL 32114,29.1715234,-81.0413646
WINN DIXIE # 2249,33710,1229 PROVIDENCE BLVD STE A,DELTONA,FL,32725,Supermarket,42678,Pass*,1229 PROVIDENCE BLVD STE A DELTONA FL 32725,28.8815589,-81.2409855
TARGET # 1795,285015,1771 DUNLAWTON AVE,PORT ORANGE,FL,32127,Supermarket,42670,Pass*,1771 DUNLAWTON AVE PORT ORANGE FL 32127,29.1102209,-81.0287449
PUBLIX # 1500,370742,2431 S WOODLAND BLVD,DELAND,FL,32720,Supermarket,42661,Pass*,2431 S WOODLAND BLVD DELAND FL 32720,28.9858576,-81.2992615
WINN DIXIE # 2311,32191,4025 S NOVA RD,PORT ORANGE,FL,32127,Supermarket,42661,Pass*,4025 S NOVA RD PORT ORANGE FL 32127,29.1187134,-80.9943139
PUBLIX # 1455,364662,3044 S ATLANTIC AVE,DAYTONA BEACH SHORES,FL,32118,Supermarket,42641,Pass*,3044 S ATLANTIC AVE DAYTONA BEACH SHORES FL 32118,29.1670237,-80.979013
PUBLIX # 1123,311566,605 COURTLAND BLVD,DELTONA,FL,32738,Supermarket,42640,Pass*,605 COURTLAND BLVD DELTONA FL 32738,28.8793637,-81.1770275
WINN DIXIE # 2263,10783,2200 S ATLANTIC AVE,DAYTONA BEACH SHORES,FL,32118,Supermarket,42640,Pass*,2200 S ATLANTIC AVE DAYTONA BEACH SHORES FL 32118,29.1959593,-80.9940402
PUBLIX # 0667,258208,915 DOYLE RD,DELTONA,FL,32725,Supermarket,42628,Pass*,915 DOYLE RD DELTONA FL 32725,28.8683506,-81.2519675
WINN DIXIE # 2203,31515,1838 S RIDGEWOOD AVE,EDGEWATER,FL,32141,Supermarket,42613,Pass*,1838 S RIDGEWOOD AVE EDGEWATER FL 32141,28.9708516,-80.896915
PUBLIX # 0446,65393,1478 W GRANADA BLVD,ORMOND BEACH,FL,32174,Supermarket,42601,Pass*,1478 W GRANADA BLVD ORMOND BEACH FL 32174,29.2556234,-81.1115462
WALMART #3629,374326,3811 CLYDE MORRIS BLVD,PORT ORANGE,FL,32129,Supermarket,42571,Pass*,3811 CLYDE MORRIS BLVD PORT ORANGE FL 32129,29.1420955,-81.0333082
WALMART SUPERCENTER #1391,53662,1101 BEVILLE RD,DAYTONA BEACH,FL,32119,Supermarket,42570,Pass*,1101 BEVILLE RD DAYTONA BEACH FL 32119,29.1726305,-81.0299112
WINN DIXIE # 2258,34896,1541 N NOVA RD,HOLLY HILL,FL,32117,Supermarket,42569,Pass*,1541 N NOVA RD HOLLY HILL FL 32117,29.2372402,-81.0550158
PUBLIX # 0203,6139,220 N NOVA RD,ORMOND BEACH,FL,32174,Supermarket,42522,Pass*,220 N NOVA RD ORMOND BEACH FL 32174,29.2827881,-81.0838243
WINN DIXIE # 2309,108777,353 W GRANADA BLVD,ORMOND BEACH,FL,32174,Supermarket,42431,Pass*,353 W GRANADA BLVD ORMOND BEACH FL 32174,29.2823674,-81.0686477
